{"type":"FeatureCollection","features":[{"type":"Feature","properties":{"name":"EDC Las Vegas"},"geometry":{"type":"Point","coordinates":[-115.00968933105469,36.2718189903361]}},{"type":"Feature","properties":{"name":"Paradiso Music Festival"},"geometry":{"type":"Point","coordinates":[-119.99731063842772,47.101330065728746]}},{"type":"Feature","properties":{"name":"What The Festival"},"geometry":{"type":"Point","coordinates":[-121.23516082763672,45.441224006699144]}},{"type":"Feature","properties":{"name":"Oregon Eclipse Festival"},"geometry":{"type":"Point","coordinates":[-120.35488128662108,44.06057607029878]}},{"type":"Feature","properties":{"name":"Lightning In A Bottle Festival"},"geometry":{"type":"Point","coordinates":[-120.98440647125243,35.90452033860553]}}]}